{
  "vouchers": {
    "available": {
      "0": {
        "id": 0,
        "vchid": 0,
        "estid": 0,
        "name": "Marias Italian Kitchen",
        "title": "Free Spaghetti",
        "details": "Spaghetti with meat balls... Marias signature dish is Delicioso!",
        "type": "restaurant",
        "date": "11/11/2014",
        "timefrom": "8:00 PM",
        "timeto": "11:00 PM",
        "value": "$10.99.00",
        "counter": 24,
        "phone": "8004627421",
        "address": "13353 Ventura Blvd.",
        "state": "CA",
        "city": "Sherman Oaks",
        "zip": "91423",
        "country": "USA",
        "lng": "-118.076851",
        "lat": "34.150651",
        "timestamp": "",
        "status": "pending"
      },
      "1": {
        "id": 1,
        "vchid": 1,
        "estid": 1,
        "name": "Outback Steakhouse",
        "title": "Free Bloomin Onion",
        "details": "Get a free Bloomin Onion just for visiting!",
        "type": "restaurant",
        "date": "11/11/2014",
        "timefrom": "8:00 PM",
        "timeto": "11:00 PM",
        "value": "$10.99.00",
        "counter": 40,
        "phone": "",
        "address": "10111 Ventura Blvd.",
        "state": "CA",
        "city": "Sherman Oaks",
        "zip": "91423",
        "country": "USA",
        "lng": "",
        "lat": "",
        "timestamp": "",
        "status": "pending"
      },
      "2": {
        "id": 2,
        "vchid": 2,
        "estid": 2,
        "name": "Starbucks Coffee",
        "title": "Free Iced Caramel Macciato",
        "details": "Get a Free Iced Caramel Macciato with any purchase.",
        "type": "coffee",
        "date": "11/11/2014",
        "timefrom": "8:00 PM",
        "timeto": "11:00 PM",
        "value": "$10.99.00",
        "counter": 30,
        "phone": "",
        "address": "10111 Ventura Blvd.",
        "state": "CA",
        "city": "Sherman Oaks",
        "zip": "91423",
        "country": "USA",
        "lng": "",
        "lat": "",
        "timestamp": "",
        "status": "pending"
      },
      "3": {
        "id": 3,
        "vchid": 3,
        "estid": 3,
        "name": "Olive Garden",
        "title": "Free Offer",
        "details": "Get a Free Offer.",
        "type": "restaurant",
        "date": "11/11/2014",
        "timefrom": "8:00 PM",
        "timeto": "11:00 PM",
        "value": "$10.99.00",
        "counter": 20,
        "phone": "",
        "address": "10111 Ventura Blvd.",
        "state": "CA",
        "city": "Sherman Oaks",
        "zip": "91423",
        "country": "USA",
        "lng": "",
        "lat": "",
        "timestamp": "",
        "status": "pending"
      },
      "4": {
        "id": 4,
        "vchid": 4,
        "estid": 4,
        "name": "Joyland",
        "title": "Free Offer",
        "details": "Get a Free Offer.",
        "type": "bar",
        "date": "11/11/2014",
        "timefrom": "8:00 PM",
        "timeto": "11:00 PM",
        "value": "$10.99.00",
        "counter": 143,
        "phone": "",
        "address": "10111 Ventura Blvd.",
        "state": "CA",
        "city": "Sherman Oaks",
        "zip": "91423",
        "country": "USA",
        "lng": "",
        "lat": "",
        "timestamp": "",
        "status": "pending"
      },
      "5": {
        "id": 5,
        "vchid": 5,
        "estid": 5,
        "name": "Tiki-Ti Cocktail Lounge",
        "title": "Free Offer",
        "details": "Get a Free Offer.",
        "type": "bar",
        "date": "11/11/2014",
        "timefrom": "8:00 PM",
        "timeto": "11:00 PM",
        "value": "$10.99.00",
        "counter": 60,
        "phone": "",
        "address": "10111 Ventura Blvd.",
        "state": "CA",
        "city": "Sherman Oaks",
        "zip": "91423",
        "country": "USA",
        "lng": "",
        "lat": "",
        "timestamp": "",
        "status": "pending"
      },
      "6": {
        "id": 6,
        "vchid": 6,
        "estid": 6,
        "name": "Chili's Grill & Bar",
        "title": "Free Offer",
        "details": "Get a Free Offer.",
        "type": "restaurant",
        "date": "11/11/2014",
        "timefrom": "8:00 PM",
        "timeto": "11:00 PM",
        "value": "$10.99.00",
        "counter": 50,
        "phone": "",
        "address": "10111 Ventura Blvd.",
        "state": "CA",
        "city": "Sherman Oaks",
        "zip": "91423",
        "country": "USA",
        "lng": "",
        "lat": "",
        "timestamp": "",
        "status": "pending"
      }
    }
  }
}